[[{"id":"11275","name":"BATTERY PARK PHARMACY INC","address":"327 S END AVE","city":"NEW YORK","state":"NY","zip":"10280","phone":"","lat":"40.7105092","lng":"-74.0162301","highlight":"0","published":"1","dist":0.764886492236},{"id":"10441","name":"DOWNTOWN PHARMACY","address":"165 WILLIAM ST","city":"NEW YORK","state":"NY","zip":"10038","phone":"","lat":"40.7101611","lng":"-74.0058470","highlight":"0","published":"1","dist":0.972021738708},{"id":"10875","name":"DOWNTOWN PHARMACY","address":"19 BEEKMAN STREET","city":"NEW YORK","state":"NY","zip":"10038","phone":"","lat":"40.7107610","lng":"-74.0063140","highlight":"0","published":"1","dist":0.995492844493},{"id":"69749","name":"Beekman Pharmacy","address":"19 Beekman St","city":"New York","state":"NY","zip":"10038-1522","phone":"(212) 766-1942","lat":"40.7107649","lng":"-74.0061004","highlight":"0","published":"1","dist":1.00741309919},{"id":"10514","name":"EVE AND MICHAEL PHARMACY INC","address":"295 GREENWICH ST","city":"NEW YORK","state":"NY","zip":"10007","phone":"","lat":"40.7157050","lng":"-74.0108870","highlight":"0","published":"1","dist":1.33950128297},{"id":"20979","name":"KINGS PHARMACY","address":"5 HUDSON ST","city":"NEW YORK","state":"NY","zip":"10013","phone":"","lat":"40.7158214","lng":"-74.0092979","highlight":"1","published":"1","dist":1.38326869443},{"id":"10859","name":"GENERATION PHARMACY LLC","address":"31 33 OLIVER ST","city":"NEW YORK","state":"NY","zip":"10038","phone":"","lat":"40.7120690","lng":"-73.9979200","highlight":"0","published":"1","dist":1.62326721484},{"id":"72509","name":"Prime Essentials Llc","address":"345 Broadway","city":"New York","state":"NY","zip":"10013    ","phone":"(212) 941-7900","lat":"40.7166736","lng":"-74.0042028","highlight":"0","published":"1","dist":1.63967709122},{"id":"21304","name":"MEDPHARM DRUG AND TRADING INC","address":"61 CATHERINE ST","city":"NEW YORK","state":"NY","zip":"10038","phone":"","lat":"40.7112817","lng":"-73.9967468","highlight":"0","published":"1","dist":1.66086828491},{"id":"21110","name":"FOREVER HEALTH PHARMACY INC","address":"2 EAST BROADWAY","city":"NEW YORK","state":"NY","zip":"10038","phone":"","lat":"40.7136190","lng":"-73.9975230","highlight":"0","published":"1","dist":1.75211686283},{"id":"11391","name":"WING ON PHARMACY INC","address":"18 E BROADWAY","city":"NEW YORK","state":"NY","zip":"10002","phone":"","lat":"40.7135012","lng":"-73.9970765","highlight":"0","published":"1","dist":1.77389973067},{"id":"21225","name":"BROADWAY DOWNTOWN PHARMACY INC","address":"373 BROADWAY","city":"NEW YORK","state":"NY","zip":"10013","phone":"","lat":"40.7177873","lng":"-74.0032782","highlight":"0","published":"1","dist":1.78587073498},{"id":"21143","name":"ALISONS PHARMACY INC","address":"12 BOWERY","city":"NEW YORK","state":"NY","zip":"10013","phone":"","lat":"40.7144679","lng":"-73.9976220","highlight":"0","published":"1","dist":1.8056964431},{"id":"72463","name":"Abc Pharmacy V Corp","address":"26 East Broadway","city":"New York","state":"NY","zip":"10002    ","phone":"(212) 965-8882","lat":"40.713726","lng":"-73.996763","highlight":"0","published":"1","dist":1.81005876855},{"id":"21325","name":"BEST CARE PHARMACY CORP","address":"28 E BROADWAY","city":"NEW YORK","state":"NY","zip":"10002","phone":"","lat":"40.7137220","lng":"-73.9966710","highlight":"0","published":"1","dist":1.81596834622},{"id":"72565","name":"E Care Pharmacy Corp","address":"48 Mott St","city":"New York","state":"NY","zip":"10013-5011","phone":"(212) 962-3388","lat":"40.715358","lng":"-73.998481","highlight":"0","published":"1","dist":1.81953043221},{"id":"20804","name":"METRO PHARM INC","address":"92 BAXTER ST","city":"NEW YORK","state":"NY","zip":"10013","phone":"","lat":"40.7167236","lng":"-73.9998237","highlight":"0","published":"1","dist":1.85503668616},{"id":"69350","name":"Pancare Pharmacy Inc","address":"22 Bowery","city":"New York","state":"NY","zip":"10013    ","phone":"(212) 240-2312","lat":"40.7148054","lng":"-73.9972242","highlight":"0","published":"1","dist":1.85560216679},{"id":"69744","name":"Aid Pharmacy Ny Corp","address":"139 Centre St","city":"New York","state":"NY","zip":"10013    ","phone":"(212) 965-9688","lat":"40.717466","lng":"-74.0008299","highlight":"0","published":"1","dist":1.86829590285},{"id":"11174","name":"CONFUCIUS PHARMACY","address":"25 BOWERY ST","city":"NEW YORK","state":"NY","zip":"10002","phone":"","lat":"40.7147614","lng":"-73.9968728","highlight":"0","published":"1","dist":1.87491311241}],[40.7038704,-74.0138541,null]][[{"id":"20979","name":"KINGS PHARMACY","address":"5 HUDSON ST","city":"NEW YORK","state":"NY","zip":"10013","phone":"","lat":"40.7158214","lng":"-74.0092979","highlight":"1","published":"1","dist":0.246578094141},{"id":"10514","name":"EVE AND MICHAEL PHARMACY INC","address":"295 GREENWICH ST","city":"NEW YORK","state":"NY","zip":"10007","phone":"","lat":"40.7157050","lng":"-74.0108870","highlight":"0","published":"1","dist":0.293029389057},{"id":"10875","name":"DOWNTOWN PHARMACY","address":"19 BEEKMAN STREET","city":"NEW YORK","state":"NY","zip":"10038","phone":"","lat":"40.7107610","lng":"-74.0063140","highlight":"0","published":"1","dist":0.379440365376},{"id":"69749","name":"Beekman Pharmacy","address":"19 Beekman St","city":"New York","state":"NY","zip":"10038-1522","phone":"(212) 766-1942","lat":"40.7107649","lng":"-74.0061004","highlight":"0","published":"1","dist":0.388973191491},{"id":"10441","name":"DOWNTOWN PHARMACY","address":"165 WILLIAM ST","city":"NEW YORK","state":"NY","zip":"10038","phone":"","lat":"40.7101611","lng":"-74.0058470","highlight":"0","published":"1","dist":0.456867271825},{"id":"72509","name":"Prime Essentials Llc","address":"345 Broadway","city":"New York","state":"NY","zip":"10013    ","phone":"(212) 941-7900","lat":"40.7166736","lng":"-74.0042028","highlight":"0","published":"1","dist":0.507547206346},{"id":"21225","name":"BROADWAY DOWNTOWN PHARMACY INC","address":"373 BROADWAY","city":"NEW YORK","state":"NY","zip":"10013","phone":"","lat":"40.7177873","lng":"-74.0032782","highlight":"0","published":"1","dist":0.649272130634},{"id":"11275","name":"BATTERY PARK PHARMACY INC","address":"327 S END AVE","city":"NEW YORK","state":"NY","zip":"10280","phone":"","lat":"40.7105092","lng":"-74.0162301","highlight":"0","published":"1","dist":0.723420327659},{"id":"21206","name":"SOHO PHARMACY","address":"3 WALKER ST","city":"NEW YORK","state":"NY","zip":"10013","phone":"","lat":"40.7199896","lng":"-74.0055525","highlight":"0","published":"1","dist":0.753700498132},{"id":"11124","name":"FAMILY CHOICE PHARMACY CORP.","address":"221 CANAL ST 2ND FL","city":"NEW YORK","state":"NY","zip":"10013","phone":"","lat":"40.7199258","lng":"-74.0050400","highlight":"0","published":"1","dist":0.763533854713},{"id":"69744","name":"Aid Pharmacy Ny Corp","address":"139 Centre St","city":"New York","state":"NY","zip":"10013    ","phone":"(212) 965-9688","lat":"40.717466","lng":"-74.0008299","highlight":"0","published":"1","dist":0.788382314573},{"id":"10380","name":"BUY RITE PHARMACY II","address":"106 LAFAYETTE ST","city":"NEW YORK","state":"NY","zip":"10013","phone":"","lat":"40.7179779","lng":"-74.0009752","highlight":"0","published":"1","dist":0.810545097659},{"id":"20804","name":"METRO PHARM INC","address":"92 BAXTER ST","city":"NEW YORK","state":"NY","zip":"10013","phone":"","lat":"40.7167236","lng":"-73.9998237","highlight":"0","published":"1","dist":0.823504530038},{"id":"20955","name":"BAC AI PHARMACY","address":"216 CANAL ST B","city":"NEW YORK","state":"NY","zip":"10013","phone":"","lat":"40.7170360","lng":"-73.9992750","highlight":"0","published":"1","dist":0.880083741213},{"id":"72565","name":"E Care Pharmacy Corp","address":"48 Mott St","city":"New York","state":"NY","zip":"10013-5011","phone":"(212) 962-3388","lat":"40.715358","lng":"-73.998481","highlight":"0","published":"1","dist":0.883040519934},{"id":"20981","name":"NEW YORK PHARMACY INC","address":"131 WALKER ST","city":"NEW YORK","state":"NY","zip":"10013","phone":"","lat":"40.7172940","lng":"-73.9993855","highlight":"0","published":"1","dist":0.88444908618},{"id":"21089","name":"CANAL STREET PHARMACY INC","address":"210 212 CANAL ST","city":"NEW YORK","state":"NY","zip":"10013","phone":"","lat":"40.7168940","lng":"-73.9989930","highlight":"0","published":"1","dist":0.895141501674},{"id":"20954","name":"CANALBERRY PHARMACY","address":"84 MULBERRY ST","city":"NEW YORK","state":"NY","zip":"10013","phone":"","lat":"40.7164820","lng":"-73.9986660","highlight":"0","published":"1","dist":0.903454814989},{"id":"10859","name":"GENERATION PHARMACY LLC","address":"31 33 OLIVER ST","city":"NEW YORK","state":"NY","zip":"10038","phone":"","lat":"40.7120690","lng":"-73.9979200","highlight":"0","published":"1","dist":0.92645238105},{"id":"11112","name":"EZ CARE PHARMACY LLC","address":"127A LAFAYETTE ST","city":"NEW YORK","state":"NY","zip":"10013","phone":"","lat":"40.7189026","lng":"-74.0000716","highlight":"0","published":"1","dist":0.933630916409}],[40.7136487,-74.0087126,null]]